{"features":[{"type":"Feature","geometry": {"type": "Point", "name": "Hannover, Germany", "coordinates": [52.3758916,9.732010400000002]},"geometryto": {"type" : "Point","name": "Hamburg", "coordinates": [53.5510846,9.9936819]}},
{"type":"Feature","geometry": {"type": "Point", "name": "Hannover, Germany", "coordinates": [52.3758916,9.732010400000002]},"geometryto": {"type" : "Point","name": "Hamburg, Germany", "coordinates": [53.5510846,9.9936819]}},
{"type":"Feature","geometry": {"type": "Point", "name": "Hannover, Germany", "coordinates": [52.3758916,9.732010400000002]},"geometryto": {"type" : "Point","name": "Hannover, Berlin", "coordinates": [52.528818,13.376979]}},
{"type":"Feature","geometry": {"type": "Point", "name": "Hannover, Germany", "coordinates": [52.3758916,9.732010400000002]},"geometryto": {"type" : "Point","name": "Hamburg", "coordinates": [53.5510846,9.9936819]}},
{"type":"Feature","geometry": {"type": "Point", "name": "Hannover, Germany", "coordinates": [52.3758916,9.732010400000002]},"geometryto": {"type" : "Point","name": "Oslo, Norway", "coordinates": [59.9138688,10.7522454]}},
{"type":"Feature","geometry": {"type": "Point", "name": "Hannover, Germany", "coordinates": [52.3758916,9.732010400000002]},"geometryto": {"type" : "Point","name": "Luxembourg", "coordinates": [49.815273,6.129582999999999]}},
{"type":"Feature","geometry": {"type": "Point", "name": "Hannover, Germany", "coordinates": [52.3758916,9.732010400000002]},"geometryto": {"type" : "Point","name": "Latvia", "coordinates": [56.879635,24.603189]}},
{"type":"Feature","geometry": {"type": "Point", "name": "Hannover, Germany", "coordinates": [52.3758916,9.732010400000002]},"geometryto": {"type" : "Point","name": "Melbourne", "coordinates": [-37.8136276,144.9630576]}},
{"type":"Feature","geometry": {"type": "Point", "name": "Hannover, Germany", "coordinates": [52.3758916,9.732010400000002]},"geometryto": {"type" : "Point","name": "Hamburg/Germany", "coordinates": [53.5510846,9.9936819]}}]}
