{"features":[{"type":"Feature","geometry": {"type": "Point", "name": "Hannover, Germany", "coordinates": [9.732010400000002,52.3758916]},"geometryto": {"type" : "Point","name": "Hamburg", "coordinates": [9.9936819,53.5510846]}},
{"type":"Feature","geometry": {"type": "Point", "name": "Hannover, Germany", "coordinates": [9.732010400000002,52.3758916]},"geometryto": {"type" : "Point","name": "Hamburg, Germany", "coordinates": [9.9936819,53.5510846]}},
{"type":"Feature","geometry": {"type": "Point", "name": "Hannover, Germany", "coordinates": [9.732010400000002,52.3758916]},"geometryto": {"type" : "Point","name": "Hannover, Berlin", "coordinates": [13.376979,52.528818]}},
{"type":"Feature","geometry": {"type": "Point", "name": "Hannover, Germany", "coordinates": [9.732010400000002,52.3758916]},"geometryto": {"type" : "Point","name": "Hamburg", "coordinates": [9.9936819,53.5510846]}},
{"type":"Feature","geometry": {"type": "Point", "name": "Hannover, Germany", "coordinates": [9.732010400000002,52.3758916]},"geometryto": {"type" : "Point","name": "Oslo, Norway", "coordinates": [10.7522454,59.9138688]}},
{"type":"Feature","geometry": {"type": "Point", "name": "Hannover, Germany", "coordinates": [9.732010400000002,52.3758916]},"geometryto": {"type" : "Point","name": "Luxembourg", "coordinates": [6.129582999999999,49.815273]}},
{"type":"Feature","geometry": {"type": "Point", "name": "Hannover, Germany", "coordinates": [9.732010400000002,52.3758916]},"geometryto": {"type" : "Point","name": "Latvia", "coordinates": [24.603189,56.879635]}},
{"type":"Feature","geometry": {"type": "Point", "name": "Hannover, Germany", "coordinates": [9.732010400000002,52.3758916]},"geometryto": {"type" : "Point","name": "Melbourne", "coordinates": [144.9630576,-37.8136276]}},
{"type":"Feature","geometry": {"type": "Point", "name": "Hannover, Germany", "coordinates": [9.732010400000002,52.3758916]},"geometryto": {"type" : "Point","name": "Hamburg/Germany", "coordinates": [9.9936819,53.5510846]}}]}